[
  {
    "id": "1",
    "name": "MFA Agri Services",
    "lat": "37.679477",
    "lng": "-92.662945",
    "address": "225 South Jefferson Avenue",
    "city": "Lebanon",
    "state": "MO",
    "postal": "65536",
    "phone": "417-532-3174",
    "tel": "14175323174",
    "featured": "",
    "features": ""
  },
  {
    "id": "2",
    "name": "MFA Agri Services",
    "lat": "37.509797",
    "lng": "-92.822162",
    "address": "430 North Newport Avenue",
    "city": "Conway",
    "state": "MO",
    "postal": "65632",
    "phone": "417-589-2501",
    "tel": "14175892501",
    "featured": "",
    "features": ""
  },
  {
    "id": "3",
    "name": "MFA Agri Services",
    "lat": "38.402318",
    "lng": "-91.330327",
    "address": "228 Main Street",
    "city": "Gerald",
    "state": "MO",
    "postal": "63037",
    "phone": "573-764-3912",
    "tel": "15737643912",
    "featured": "",
    "features": ""
  },
  {
    "id": "4",
    "name": "MFA Agri Services",
    "lat": "38.348308",
    "lng": "-90.987423",
    "address": "35 North Commercial Avenue",
    "city": "Saint Clair",
    "state": "MO",
    "postal": "63077",
    "phone": "636-629-2822",
    "tel": "16366292822",
    "featured": "",
    "features": ""
  },
  {
    "id": "5",
    "name": "MFA Agri Services",
    "lat": "37.128327",
    "lng": "-92.265203",
    "address": "100 West North Street",
    "city": "Mountain Grove",
    "state": "MO",
    "postal": "65711",
    "phone": "417-926-4291",
    "tel": "14179264291",
    "featured": "",
    "features": ""
  },
  {
    "id": "6",
    "name": "Global Harvest Organics",
    "lat": "37.064106",
    "lng": "-93.700965",
    "address": "19886 Lawrence 2145",
    "city": "Arora",
    "state": "MO",
    "postal": "65606",
    "phone": "855-870-6702",
    "tel": "18558706702",
    "featured": "",
    "features": ""
  },
  {
    "id": "7",
    "name": "G & G Welding",
    "lat": "38.380689",
    "lng": "-91.4745",
    "address": "3286 Piezuch Road",
    "city": "Owensville",
    "state": "MO",
    "postal": "65606",
    "phone": "573-437-3641",
    "tel": "15737373641",
    "featured": "",
    "features": ""
  },
  {
    "id": "8",
    "name": "Gregg Farm Services",
    "lat": "36.367223",
    "lng": "-92.460673",
    "address": "6153 AR-126",
    "city": "Gasville",
    "state": "AR",
    "postal": "72635",
    "phone": "870-481-5165",
    "tel": "18704815165",
    "featured": "",
    "features": ""
  },
  {
    "id": "9",
    "name": "Feed & More Country Store",
    "lat": "37.098507",
    "lng": "-93.827277",
    "address": "595 W Sloan Street",
    "city": "Mount Vernon",
    "state": "MO",
    "postal": "65712",
    "phone": "417-471-1410",
    "tel": "14174711410",
    "featured": "",
    "features": ""
  },
  {
    "id": "10",
    "name": "Hirsch Feed & Farm Supply Inc",
    "lat": "36.721626",
    "lng": "-91.879632",
    "address": "789 Worley Drive",
    "city": "West Plains",
    "state": "MO",
    "postal": "65775",
    "phone": "417-256-3749",
    "tel": "14172563749",
    "featured": "",
    "features": ""
  },
  {
    "id": "11",
    "name": "Hirsch Feed & Farm Supply Inc",
    "lat": "36.511556",
    "lng": "-91.541851",
    "address": "1400 Nettleton Ave",
    "city": "Thayer",
    "state": "MO",
    "postal": "65791",
    "phone": "417-264-7616",
    "tel": "14172647616",
    "featured": "",
    "features": ""
  },
  {
    "id": "12",
    "name": "Jackson Farmers Inc",
    "lat": "39.465719",
    "lng": "-95.728875",
    "address": "509 Lowell",
    "city": "Holton",
    "state": "KS",
    "postal": "66436",
    "phone": "785-364-3161",
    "tel": "17853643161",
    "featured": "",
    "features": ""
  },
  {
    "id": "13",
    "name": "Jackson Farmers Inc",
    "lat": "39.522446",
    "lng": "-95.398066",
    "address": "511 Howard",
    "city": "Effingham",
    "state": "KS",
    "postal": "66023",
    "phone": "913-833-2070",
    "tel": "19138332070",
    "featured": "",
    "features": ""
  },
  {
    "id": "14",
    "name": "Letterman Feed",
    "lat": "37.469349",
    "lng": "-92.847717",
    "address": "739 Honeylocust",
    "city": "Niangua",
    "state": "MO",
    "postal": "65713",
    "phone": "417-589-8135",
    "tel": "14175898135",
    "featured": "",
    "features": ""
  },
  {
    "id": "15",
    "name": "Main Street Feeds",
    "lat": "36.918282",
    "lng": "-93.928304",
    "address": "109 Main Street",
    "city": "Monett",
    "state": "MO",
    "postal": "65708",
    "phone": "417-235-6680",
    "tel": "14172356680",
    "featured": "",
    "features": ""
  },
  {
    "id": "16",
    "name": "Main Street Feeds",
    "lat": "37.213997",
    "lng": "-93.398577",
    "address": "8270 W. State Highway 226",
    "city": "Springfield",
    "state": "MO",
    "postal": "65802",
    "phone": "417-869-5384",
    "tel": "14178695384",
    "featured": "",
    "features": ""
  },
  {
    "id": "17",
    "name": "MFA Incorporated",
    "lat": "38.92989",
    "lng": "-92.30236",
    "address": "201 Ray Young Drive",
    "city": "Columbia",
    "state": "MO",
    "postal": "65201",
    "phone": "573-387-5111",
    "tel": "15733875111",
    "featured": "",
    "features": ""
  },
  {
    "id": "18",
    "name": "MFA Agri Services",
    "lat": "37.916191",
    "lng": "-91.322699",
    "address": "17784 MO Highway 19",
    "city": "Steelville",
    "state": "MO",
    "postal": "65565",
    "phone": "573-775-2646",
    "tel": "15737752646",
    "featured": "",
    "features": ""
  },
  {
    "id": "19",
    "name": "MFA Agri Services",
    "lat": "36.969757",
    "lng": "-93.703574",
    "address": "1104 East Church Street",
    "city": "Aurora",
    "state": "MO",
    "postal": "65605",
    "phone": "417-678-3244",
    "tel": "14176783244",
    "featured": "",
    "features": ""
  },
  {
    "id": "20",
    "name": "MFA Cooperative Association No. 2",
    "lat": "38.570425",
    "lng": "-91.075983",
    "address": "6927 West MO-100",
    "city": "Washington",
    "state": "MO",
    "postal": "63090",
    "phone": "636-239-2068",
    "tel": "16362392068",
    "featured": "",
    "features": ""
  },
  {
    "id": "21",
    "name": "MFA Incorporated",
    "lat": "38.53489",
    "lng": "-93.52694",
    "address": "500 West Jackson Street",
    "city": "Windsor",
    "state": "MO",
    "postal": "65360",
    "phone": "60-647-2117",
    "tel": "16606472117",
    "featured": "",
    "features": ""
  },
  {
    "id": "22",
    "name": "MFA Farmers Elevator Company",
    "lat": "38.186508",
    "lng": "-91.958336",
    "address": "243 MO-42",
    "city": "Vienna",
    "state": "MO",
    "postal": "65582",
    "phone": "573-422-3182",
    "tel": "15734223182",
    "featured": "",
    "features": ""
  },
  {
    "id": "23",
    "name": "MFA Agri Services",
    "lat": "38.692306",
    "lng": "-93.240143",
    "address": "2200 Clinton Road",
    "city": "Sedalia",
    "state": "MO",
    "postal": "65301",
    "phone": "660-826-7097",
    "tel": "16608267097",
    "featured": "",
    "features": ""
  },
  {
    "id": "24",
    "name": "MFA Feeds",
    "lat": "38.687481",
    "lng": "-91.449306",
    "address": "E 191 MO-100",
    "city": "Hermann",
    "state": "MO",
    "postal": "65041",
    "phone": "573-486-5414",
    "tel": "15734865414",
    "featured": "",
    "features": ""
  },
  {
    "id": "25",
    "name": "MFA Agri Services",
    "lat": "38.348274",
    "lng": "-90.987445",
    "address": "35 North Commercial",
    "city": "Saint Clair",
    "state": "MO",
    "postal": "63077",
    "phone": "636-629-2822",
    "tel": "16366292822",
    "featured": "",
    "features": ""
  },
  {
    "id": "26",
    "name": "MFA Agri Services",
    "lat": "37.316457",
    "lng": "-91.958508",
    "address": "110 East Route MO-17",
    "city": "Houston",
    "state": "MO",
    "postal": "65483",
    "phone": "417-967-2145",
    "tel": "14179672145",
    "featured": "",
    "features": ""
  },
  {
    "id": "27",
    "name": "MFA Agri Services Midsouth",
    "lat": "36.663279",
    "lng": "-90.427165",
    "address": "421 MO-158",
    "city": "Poplar Bluff",
    "state": "MO",
    "postal": "63901",
    "phone": "573-785-0916",
    "tel": "15737850916",
    "featured": "",
    "features": ""
  },
  {
    "id": "28",
    "name": "MFA True Value",
    "lat": "37.400112",
    "lng": "-92.608417",
    "address": "2135 Highway M'",
    "city": "Grovesprings",
    "state": "MO",
    "postal": "65662",
    "phone": "417-462-3266",
    "tel": "14174623266",
    "featured": "",
    "features": ""
  },
  {
    "id": "29",
    "name": "MFA Agri Services",
    "lat": "37.856384",
    "lng": "-92.403934",
    "address": "116 East McClurg",
    "city": "Richland",
    "state": "MO",
    "postal": "65556",
    "phone": "573-765-3301",
    "tel": "15737653301",
    "featured": "",
    "features": ""
  },
  {
    "id": "30",
    "name": "MFA Rolla Farmers Exchang",
    "lat": "37.912949",
    "lng": "-91.725844",
    "address": "12595 Country Road",
    "city": "Rolla",
    "state": "MO",
    "postal": "65402",
    "phone": "573-364-1874",
    "tel": "15733641874",
    "featured": "",
    "features": ""
  },
  {
    "id": "31",
    "name": "MFA Plant Foods Division",
    "lat": "36.347068",
    "lng": "-93.548937",
    "address": "438 Country Road 702",
    "city": "Berryville",
    "state": "AR",
    "postal": "72616",
    "phone": "870-423-6333",
    "tel": "18704236333",
    "featured": "",
    "features": ""
  },
  {
    "id": "32",
    "name": "Lohman Producers Exchange",
    "lat": "38.542052",
    "lng": "-92.36428",
    "address": "2915 Main Street",
    "city": "Lohman",
    "state": "MO",
    "postal": "65053",
    "phone": "573-782-4611",
    "tel": "15737824611",
    "featured": "",
    "features": ""
  },
  {
    "id": "33",
    "name": "Nixa Hardware & Seed Company",
    "lat": "37.043121",
    "lng": "-93.304695",
    "address": "510 West Mount Vernon Street",
    "city": "Nixa",
    "state": "MO",
    "postal": "65714",
    "phone": "417-725-3512",
    "tel": "14177253512",
    "featured": "",
    "features": ""
  },
  {
    "id": "34",
    "name": "Orange Madison Cooperative",
    "lat": "38.389178",
    "lng": "-78.245986",
    "address": "1295 North Main Street",
    "city": "Madison",
    "state": "VA",
    "postal": "22727",
    "phone": "540-948-5671",
    "tel": "15409485671",
    "featured": "",
    "features": ""
  },
  {
    "id": "35",
    "name": "Orange Madison Cooperative",
    "lat": "38.221693",
    "lng": "-78.123483",
    "address": "13323 James Madison Highway",
    "city": "Orange",
    "state": "VA",
    "postal": "22960",
    "phone": "540-672-2977",
    "tel": "15406722977",
    "featured": "",
    "features": ""
  },
  {
    "id": "36",
    "name": "Ranalli Farm & Equipment",
    "lat": "38.177866",
    "lng": "-94.273166",
    "address": "2122 W Henri De Tonti Blvd",
    "city": "Springdale",
    "state": "AR",
    "postal": "73762",
    "phone": "479-361-2738",
    "tel": "14793612738",
    "featured": "",
    "features": ""
  },
  {
    "id": "37",
    "name": "Southern States",
    "lat": "37.131463",
    "lng": "-81.526848",
    "address": "1015 Tazewell Ave",
    "city": "North Tazewell",
    "state": "VA",
    "postal": "24630",
    "phone": "276-988-3411",
    "tel": "12769883411",
    "featured": "",
    "features": ""
  },
  {
    "id": "38",
    "name": "Southern States",
    "lat": "37.329099",
    "lng": "-79.501928",
    "address": "1053 Independence Blvd",
    "city": "Bedford",
    "state": "VA",
    "postal": "24523",
    "phone": "540-586-8201",
    "tel": "15405868201",
    "featured": "",
    "features": ""
  },
  {
    "id": "39",
    "name": "Southern States",
    "lat": "36.602795",
    "lng": "-82.192817",
    "address": "1313 Euclid Avenue",
    "city": "Bristol",
    "state": "VA",
    "postal": "24201",
    "phone": "276-669-8101",
    "tel": "12766698101",
    "featured": "",
    "features": ""
  },
  {
    "id": "40",
    "name": "Southern States",
    "lat": "37.744425",
    "lng": "-80.47239",
    "address": "608 Monroe Avenue",
    "city": "Ronceverte",
    "state": "WV",
    "postal": "24970",
    "phone": "340-647-5501",
    "tel": "13406475501",
    "featured": "",
    "features": ""
  },
  {
    "id": "41",
    "name": "Southern States",
    "lat": "38.223372",
    "lng": "-80.092811",
    "address": "719 Third Avenue",
    "city": "Marlinton",
    "state": "WV",
    "postal": "24954",
    "phone": "304-799-6523",
    "tel": "13047996523",
    "featured": "",
    "features": ""
  },
  {
    "id": "42",
    "name": "Southern States",
    "lat": "36.946383",
    "lng": "-81.06365",
    "address": "1055 Industry Road",
    "city": "Wytheville",
    "state": "VA",
    "postal": "24382",
    "phone": "276-228-3401",
    "tel": "12762283401",
    "featured": "",
    "features": ""
  },
  {
    "id": "43",
    "name": "Southern States",
    "lat": "37.131383",
    "lng": "-80.3907",
    "address": "885 Roanoke Street",
    "city": "Christianburg",
    "state": "VA",
    "postal": "24073",
    "phone": "540-382-2984",
    "tel": "15403822984",
    "featured": "",
    "features": ""
  },{
    "id": "44",
    "name": "Ag Distributor",
    "lat": "36.414484",
    "lng": "-89.702476",
    "address": "230 State Hwy T",
    "city": "Portageville",
    "state": "MO",
    "postal": "63873",
    "phone": "573-379-3815",
    "tel": "15733793815",
    "featured": "",
    "features": ""
  },
  {
    "id": "45",
    "name": "AgCentral Farmers Co-op",
    "lat": "35.873104",
    "lng": "-84.574612",
    "address": "3058 Roane State Highway",
    "city": "Harriman",
    "state": "TN",
    "postal": "37748",
    "phone": "865-882-2127",
    "tel": "18658822127",
    "featured": "",
    "features": ""
  },
  {
    "id": "46",
    "name": "Greenback Co-op",
    "lat": "35.654312",
    "lng": "-84.155428",
    "address": "3963 TN-95",
    "city": "Greenback",
    "state": "TN",
    "postal": "37741",
    "phone": "865-856-3002",
    "tel": "18658563002",
    "featured": "",
    "features": ""
  },{
    "id": "47",
    "name": "AgCentral Farmers Cooperative",
    "lat": "35.740259",
    "lng": "-83.987342",
    "address": "1514 West Broadway",
    "city": "Maryville",
    "state": "TN",
    "postal": "37801",
    "phone": "865-982-2761",
    "tel": "18659822761",
    "featured": "",
    "features": ""
  },{
    "id": "48",
    "name": "AgCentral Farmers Cooperative",
    "lat": "35.478973",
    "lng": "-84.595328",
    "address": "920 Congress Pkwy N",
    "city": "Athens",
    "state": "TN",
    "postal": "37303",
    "phone": "423-745-0443",
    "tel": "14237450443",
    "featured": "",
    "features": ""
  },{
    "id": "49",
    "name": "AgCentral Farmers Co-op",
    "lat": "35.514735",
    "lng": "-84.371969",
    "address": "1249,626 Anderson Street",
    "city": "Madisonville",
    "state": "TN",
    "postal": "37354",
    "phone": "423-442-2407",
    "tel": "14234422407",
    "featured": "",
    "features": ""
  },{
    "id": "50",
    "name": "AgCentral Tire Pros",
    "lat": "35.590905",
    "lng": "-84.479687",
    "address": "776 New Highway 68",
    "city": "Sweetwater",
    "state": "TN",
    "postal": "37874",
    "phone": "423-337-3551",
    "tel": "14233373551",
    "featured": "",
    "features": ""
  },{
    "id": "51",
    "name": "AgCentral Tire Pros",
    "lat": "35.715768",
    "lng": "-84.361367",
    "address": "2084 West Lee Highway",
    "city": "Loudon",
    "state": "TN",
    "postal": "37086",
    "phone": "865-856-1181",
    "tel": "18658561181",
    "featured": "",
    "features": ""
  },{
    "id": "52",
    "name": "GreenPoint AG",
    "lat": "37.76391",
    "lng": "-86.460681",
    "address": "1268 Highway 261 S",
    "city": "Hardinsburg",
    "state": "KY",
    "postal": "40143",
    "phone": "270-756-2311",
    "tel": "12707562311",
    "featured": "",
    "features": ""
  },
  {
    "id": "53",
    "name": "Alcorn County Co-op",
    "lat": "34.925004",
    "lng": "-88.52529",
    "address": "221 Hwy 72 W",
    "city": "Corinth",
    "state": "MS",
    "postal": "38834",
    "phone": "662-286-6886",
    "tel": "16622866886",
    "featured": "",
    "features": ""
  },
  {
    "id": "54",
    "name": "Augusta Co-op Farmer Bureau Inc",
    "lat": "38.134292",
    "lng": "-79.041416",
    "address": "1205 Richmond Avenue",
    "city": "Staunton",
    "state": "VA",
    "postal": "24401",
    "phone": "540-855-1265",
    "tel": "15408551265",
    "featured": "",
    "features": ""
  },
  {
    "id": "55",
    "name": "Anderson Farmers Co-op",
    "lat": "36.09824",
    "lng": "-84.132065",
    "address": "110 S Charles G Seivers Blvd",
    "city": "Clinton",
    "state": "TN",
    "postal": "37716",
    "phone": "865-457-9641",
    "tel": "18654579641",
    "featured": "",
    "features": ""
  },
  {
    "id": "56",
    "name": "Bedford Farmer's Co-op",
    "lat": "35.480265",
    "lng": "-86.465691",
    "address": "3912, 222 S Cannon Blvd",
    "city": "Shelbyville",
    "state": "TN",
    "postal": "37160",
    "phone": "931-684-3506",
    "tel": "19316843506",
    "featured": "",
    "features": ""
  },
  {
    "id": "57",
    "name": "Benton Farmers Co-op",
    "lat": "36.050807",
    "lng": "-88.099447",
    "address": "172 Natchez Trace Road",
    "city": "Camden",
    "state": "TN",
    "postal": "38320",
    "phone": "731-584-8294",
    "tel": "17315848294",
    "featured": "",
    "features": ""
  },
  {
    "id": "58",
    "name": "C & F Farm Supply Inc",
    "lat": "37.100991",
    "lng": "-85.814929",
    "address": "91 W Hiseville Main Street",
    "city": "Hiseville",
    "state": "TN",
    "postal": "42152",
    "phone": "270-453-3595",
    "tel": "12704533595",
    "featured": "",
    "features": ""
  },
  {
    "id": "59",
    "name": "Carroll Farmers Co-op",
    "lat": "36.015334",
    "lng": "-88.624022",
    "address": "190 Melton Street",
    "city": "Trezevant",
    "state": "TN",
    "postal": "38258",
    "phone": "731-669-6281",
    "tel": "17316696281",
    "featured": "",
    "features": ""
  },
  {
    "id": "60",
    "name": "Cheatham Farmer's Co-op",
    "lat": "36.273366",
    "lng": "-87.066276",
    "address": "114 Cumberland Street",
    "city": "Ashland City",
    "state": "TN",
    "postal": "37015",
    "phone": "615-792-5611",
    "tel": "16157925611",
    "featured": "",
    "features": ""
  },
  {
    "id": "61",
    "name": "Claiborne Farmers Cooperative",
    "lat": "36.375009",
    "lng": "-84.126565",
    "address": "505 West Beech Street",
    "city": "LaFollette",
    "state": "TN",
    "postal": "37766",
    "phone": "423-562-5237",
    "tel": "14235625237",
    "featured": "",
    "features": ""
  },
  {
    "id": "62",
    "name": "Claiborne Farmers Cooperative",
    "lat": "36.444204",
    "lng": "-83.599696",
    "address": "605 Third Avenue",
    "city": "New Tazewell",
    "state": "TN",
    "postal": "37825",
    "phone": "423-626-5251",
    "tel": "14236265251",
    "featured": "",
    "features": ""
  },
  {
    "id": "63",
    "name": "Claiborne Farmers Cooperative",
    "lat": "36.510852",
    "lng": "-83.782715",
    "address": "100 Old Highway 63",
    "city": "Speedville",
    "state": "TN",
    "postal": "37870",
    "phone": "423-869-4726",
    "tel": "14238694726",
    "featured": "",
    "features": ""
  },
  {
    "id": "64",
    "name": "Cocke Farmers",
    "lat": "35.970322",
    "lng": "-83.206065",
    "address": "464 West Broadway",
    "city": "Newport",
    "state": "TN",
    "postal": "37821",
    "phone": "423-623-2331",
    "tel": "14236262331",
    "featured": "",
    "features": ""
  },{
    "id": "65",
    "name": "Coffee Farmers Co-op",
    "lat": "35.494921",
    "lng": "-86.072171",
    "address": "93 Interstate Drive",
    "city": "Manchester",
    "state": "TN",
    "postal": "37355",
    "phone": "931-728-2492",
    "tel": "19317282492",
    "featured": "",
    "features": ""
  },
  {
    "id": "66",
    "name": "Cumberland Farmers Co-op",
    "lat": "35.962408",
    "lng": "-85.039001",
    "address": "152 Elmore Road",
    "city": "Crossville",
    "state": "TN",
    "postal": "38555",
    "phone": "931-484-9577",
    "tel": "19314849577",
    "featured": "",
    "features": ""
  },
  {
    "id": "67",
    "name": "De Kalb's Farmers Co-op",
    "lat": "35.960764",
    "lng": "-85.841776",
    "address": "725 West Broad Street",
    "city": "Smithville",
    "state": "TN",
    "postal": "37166",
    "phone": "615-597-4134",
    "tel": "16155974134",
    "featured": "",
    "features": ""
  },
  {
    "id": "68",
    "name": "Eagleville Farmers Co-op",
    "lat": "35.7553",
    "lng": "-86.65085",
    "address": "1217 North Main Street",
    "city": "Eagleville",
    "state": "TN",
    "postal": "37060",
    "phone": "615-274-6211'",
    "tel": "16152746211",
    "featured": "",
    "features": ""
  },
  {
    "id": "69",
    "name": "Federer Fertilizer Inc",
    "lat": "34.120294",
    "lng": "-86.893482",
    "address": "2471, Country Road 222",
    "city": "Cullman",
    "state": "AL",
    "postal": "35057",
    "phone": "256-734-1226",
    "tel": "12567341226",
    "featured": "",
    "features": ""
  },
  {
    "id": "70",
    "name": "Fentress County Farmers Co-op",
    "lat": "36.400795",
    "lng": "-84.936971",
    "address": "1219 Old Jamestown Highway 127 S",
    "city": "Jamestown",
    "state": "TN",
    "postal": "38556",
    "phone": "931-879-8114",
    "tel": "19318798114",
    "featured": "",
    "features": ""
  },
  {
    "id": "71",
    "name": "Farmers Cooperative",
    "lat": "35.579744",
    "lng": "-83.012984",
    "address": "4082 Jonathan Creek Road",
    "city": "Waynesville",
    "state": "NC",
    "postal": "28785",
    "phone": "828-926-6124",
    "tel": "18289266124",
    "featured": "",
    "features": ""
  },
  {
    "id": "72",
    "name": "First Farmers Co-op",
    "lat": "35.446489",
    "lng": "-88.614872",
    "address": "1013 E Main Street'",
    "city": "Henderson",
    "state": "TN",
    "postal": "38340",
    "phone": "731-989-4621",
    "tel": "17319894621",
    "featured": "",
    "features": ""
  },
  {
    "id": "73",
    "name": "First Farmers Co-op",
    "lat": "35.583533",
    "lng": "-88.127673",
    "address": "423 West Main Street",
    "city": "Decaturville",
    "state": "TN",
    "postal": "38329",
    "phone": "731-852-2931",
    "tel": "17318522931",
    "featured": "",
    "features": ""
  },
  {
    "id": "74",
    "name": "Smith Farmers Co-op",
    "lat": "36.237854",
    "lng": "-85.949376",
    "address": "81 Cookeville Highway",
    "city": "Carthage",
    "state": "TN",
    "postal": "37030",
    "phone": "615-735-0404",
    "tel": "16157350404",
    "featured": "",
    "features": ""
  },
  {
    "id": "75",
    "name": "Franklin Farmers Cooperative",
    "lat": "35.212128",
    "lng": "-86.097802",
    "address": "2229 Decherd Blvd",
    "city": "Decherd",
    "state": "TN",
    "postal": "37324",
    "phone": "931-967-5511",
    "tel": "19319675511",
    "featured": "",
    "features": ""
  },
  {
    "id": "76",
    "name": "Gibson Farmers Co-op",
    "lat": "35.961916",
    "lng": "-88.950762",
    "address": "1210 Manufactures Row",
    "city": "Trenton",
    "state": "TN",
    "postal": "38382",
    "phone": "731-855-1891",
    "tel": "17318551891",
    "featured": "",
    "features": ""
  },
  {
    "id": "77",
    "name": "Gibson Farmers Co-op",
    "lat": "36.109081",
    "lng": "-89.263574",
    "address": "307 Jefferson Street",
    "city": "Newbern",
    "state": "TN",
    "postal": "38059",
    "phone": "731-627-2525",
    "tel": "17316272525",
    "featured": "",
    "features": ""
  },
  {
    "id": "78",
    "name": "Giles County Co-op Pulaski",
    "lat": "35.152658",
    "lng": "-87.00585",
    "address": "2070 Elkton Pike",
    "city": "Pulaski",
    "state": "TN",
    "postal": "38478",
    "phone": "931-363-2563",
    "tel": "19313632563",
    "featured": "",
    "features": ""
  },
  {
    "id": "79",
    "name": "Grainger Farmers Co-op",
    "lat": "36.285386",
    "lng": "-83.501331",
    "address": "8570 Rutledge Pike",
    "city": "Rutledge",
    "state": "TN",
    "postal": "37861",
    "phone": "865-828-5226",
    "tel": "18658285226",
    "featured": "",
    "features": ""
  },
  {
    "id": "80",
    "name": "Greene Farmers Co-op",
    "lat": "36.150213",
    "lng": "-82.85508",
    "address": "1414 West Main Street",
    "city": "Greenville",
    "state": "TN",
    "postal": "37743",
    "phone": "423-638-8101",
    "tel": "14236388101",
    "featured": "",
    "features": ""
  },
  {
    "id": "81",
    "name": "Hamblen Farmers' Co-op",
    "lat": "36.233363",
    "lng": "-83.240293",
    "address": "4048 East Morris Blvd",
    "city": "Morristown",
    "state": "TN",
    "postal": "37813",
    "phone": "423-586-9141",
    "tel": "14235869141",
    "featured": "",
    "features": ""
  },
  {
    "id": "82",
    "name": "Hancock Farmers Co-op",
    "lat": "36.529072",
    "lng": "-83.216988",
    "address": "192 Jail Street",
    "city": "Sneedville",
    "state": "TN",
    "postal": "37869",
    "phone": "423-733-2255",
    "tel": "14237332255",
    "featured": "",
    "features": ""
  },
  {
    "id": "83",
    "name": "Hawkins Farmers Cooperative",
    "lat": "36.416424",
    "lng": "-82.982496",
    "address": "240 Burem Road",
    "city": "Rogersville",
    "state": "TN",
    "postal": "37857",
    "phone": "423-272-2611",
    "tel": "14232722611",
    "featured": "",
    "features": ""
  },
  {
    "id": "84",
    "name": "Henderson-Chester Farmers",
    "lat": "35.718055",
    "lng": "-88.389925",
    "address": "16219 TN-22",
    "city": "Lexington",
    "state": "TN",
    "postal": "38351",
    "phone": "731-968-2087",
    "tel": "17319682087",
    "featured": "",
    "features": ""
  },
  {
    "id": "85",
    "name": "Henry Farmers Co-op",
    "lat": "36.305672",
    "lng": "-88.34291",
    "address": "225 TN-69",
    "city": "Paris",
    "state": "TN",
    "postal": "38242",
    "phone": "731-642-1385",
    "tel": "17316421385",
    "featured": "",
    "features": ""
  },
  {
    "id": "86",
    "name": "Humphrey's Farmers Co-op",
    "lat": "36.05612",
    "lng": "-87.779687",
    "address": "2173 TN-13",
    "city": "Waverly",
    "state": "TN",
    "postal": "37185",
    "phone": "931-296-254",
    "tel": "19312962541",
    "featured": "",
    "features": ""
  },
  {
    "id": "87",
    "name": "Humphrey's Farmers Co-op",
    "lat": "35.768571",
    "lng": "-87.463217",
    "address": "146 Linden Road",
    "city": "Centerville",
    "state": "TN",
    "postal": "37033",
    "phone": "931-729-2271",
    "tel": "19317292271",
    "featured": "",
    "features": ""
  },
  {
    "id": "88",
    "name": "Humphrey's Farmers Co-op",
    "lat": "36.316539",
    "lng": "-87.674987",
    "address": "6671 TN-13",
    "city": "Erin",
    "state": "TN",
    "postal": "37061",
    "phone": "931-286-3446",
    "tel": "19312893446",
    "featured": "",
    "features": ""
  },
  {
    "id": "89",
    "name": "Jefferson Farmers Co-op",
    "lat": "36.054054",
    "lng": "-83.463962",
    "address": "106",
    "city": "Damridge",
    "state": "TN",
    "postal": "37725",
    "phone": "865-397-3434",
    "tel": "18653973434",
    "featured": "",
    "features": ""
  },
  {
    "id": "90",
    "name": "Knox Farmers Co-op Halls",
    "lat": "36.068333",
    "lng": "-83.93456",
    "address": "3903 Fountain Valley Drive",
    "city": "Knoxville",
    "state": "TN",
    "postal": "37918",
    "phone": "865-922-2115",
    "tel": "18659225115",
    "featured": "",
    "features": ""
  },
  {
    "id": "91",
    "name": "Lake Cumberland Farmers Co-op",
    "lat": "36.848462",
    "lng": "-84.86038",
    "address": "469 KY-90",
    "city": "Monticello",
    "state": "KY",
    "postal": "42633",
    "phone": "606-340-0171",
    "tel": "16063400171",
    "featured": "",
    "features": ""
  },
  {
    "id": "92",
    "name": "Lawrence Farmers Co-op Tires",
    "lat": "35.269067",
    "lng": "-87.3171",
    "address": "400 Crews Street",
    "city": "Lawrenceburg",
    "state": "TN",
    "postal": "38464",
    "phone": "931-762-7139",
    "tel": "19317627139",
    "featured": "",
    "features": ""
  },
  {
    "id": "93",
    "name": "Lincoln Farmers Co-op",
    "lat": "35.162166",
    "lng": ":-",
    "address": "1205 Winchester Highway",
    "city": "Fayetteville",
    "state": "TN",
    "postal": "37334",
    "phone": "931-433-4508",
    "tel": "19314334508",
    "featured": "",
    "features": ""
  },
  {
    "id": "94",
    "name": "Macon-Trousdale Farmers Co-op",
    "lat": "36.529573",
    "lng": "-86.027557",
    "address": "905 Scottville Road",
    "city": "Lafayette",
    "state": "TN ",
    "postal": "37083",
    "phone": "615-666-2755",
    "tel": "16156662755",
    "featured": "",
    "features": ""
  },
  {
    "id": "95",
    "name": "Marion Farmer's Co-op",
    "lat": "35.076938",
    "lng": "-85.619837",
    "address": "255 Turner Street",
    "city": "Jasper",
    "state": "TN",
    "postal": "37347",
    "phone": "423-942-3428",
    "tel": "14239423428",
    "featured": "",
    "features": ""
  },
  {
    "id": "96",
    "name": "Marshall Farmers Co-op",
    "lat": "35.631435",
    "lng": "-86.688045",
    "address": "2304 Unionville Road",
    "city": "Chapel Hill",
    "state": "TN",
    "postal": "37034",
    "phone": "931-364-7421",
    "tel": "19313647421",
    "featured": "",
    "features": ""
  },
  {
    "id": "97",
    "name": "Marshall Farmers Co-op Power Equipment",
    "lat": "35.43993",
    "lng": "-86.772822",
    "address": "615 South Ellington Pkwy",
    "city": "Lewisburg",
    "state": "TN",
    "postal": "37091",
    "phone": "931-359-1558",
    "tel": "19313591558",
    "featured": "",
    "features": ""
  },
  {
    "id": "98",
    "name": "Maury Farmers Co-op",
    "lat": "35.609578",
    "lng": "-87.06719",
    "address": "423 Westover Drive",
    "city": "Columbia",
    "state": "TN",
    "postal": "38402",
    "phone": "931-388-0714",
    "tel": "19313880714",
    "featured": "",
    "features": ""
  },
  {
    "id": "99",
    "name": "Mid-South Farmers Co-op",
    "lat": "35.230863",
    "lng": "-89.032918",
    "address": "14840 TN-18",
    "city": "Bolivar",
    "state": "TN",
    "postal": "38008",
    "phone": "731-658-1534",
    "tel": "17316581534",
    "featured": "",
    "features": ""
  },
  {
    "id": "100",
    "name": "Montgomery Farmers Co-op",
    "lat": "36.554593",
    "lng": "-87.322652",
    "address": "1801 Wilma Rudolph Blvd",
    "city": "Clarksville",
    "state": "TN",
    "postal": "37040",
    "phone": "931-648-0637",
    "tel": "19316480637",
    "featured": "",
    "features": ""
  },
  {
    "id": "101",
    "name": "Mid-South Farmers Co-op",
    "lat": "35.784758",
    "lng": "-89.123996",
    "address": "359 West Main Street",
    "city": "Alamo",
    "state": "TN",
    "postal": "38001",
    "phone": "731-696-5527",
    "tel": "17316965527",
    "featured": "",
    "features": ""
  },
  {
    "id": "102",
    "name": "Moore Farmers Co-op",
    "lat": "35.266624",
    "lng": "-86.389576",
    "address": "1533 Fayetteville Highway",
    "city": "Lynchburg",
    "state": "TN",
    "postal": "37352",
    "phone": "931-759-7236",
    "tel": "19317597236",
    "featured": "",
    "features": ""
  },
  {
    "id": "103",
    "name": "Overton Farmers Co-op",
    "lat": "36.369147",
    "lng": "-85.341537",
    "address": "2210, 1500 W Main Street",
    "city": "Livingston",
    "state": "TN",
    "postal": "38570",
    "phone": "931-823-1291",
    "tel": "19318231291",
    "featured": "",
    "features": ""
  },
  {
    "id": "104",
    "name": "Perry Farmers Co-op Inc",
    "lat": "35.590964",
    "lng": "-87.865122",
    "address": "2796 Squirrel Hollow Drive",
    "city": "Linden",
    "state": "TN",
    "postal": "37096",
    "phone": "931-589-2518",
    "tel": "19315892518",
    "featured": "",
    "features": ""
  },
  {
    "id": "105",
    "name": "Pickett Farmers Co-op",
    "lat": "36.596722",
    "lng": "-85.136388",
    "address": "1116 Olympus Drive",
    "city": "Byrdstown",
    "state": "TN",
    "postal": "38549",
    "phone": "931-864-3172",
    "tel": "19318643172",
    "featured": "",
    "features": ""
  },
  {
    "id": "106",
    "name": "Putnam Famers Co-op",
    "lat": "36.167425",
    "lng": "-85.517755",
    "address": "541 West Broad Street",
    "city": "Cookeville",
    "state": "TN",
    "postal": "38501",
    "phone": "931-526-7147",
    "tel": "19315267147",
    "featured": "",
    "features": ""
  },
  {
    "id": "107",
    "name": "Rutherford Farmers Co-op",
    "lat": "35.828309",
    "lng": "-86.392545",
    "address": "985 Middle Tennessee Blvd",
    "city": "Murfreesboro",
    "state": "TN",
    "postal": "37133",
    "phone": "615-893-6212",
    "tel": "16158936212",
    "featured": "",
    "features": ""
  },
  {
    "id": "108",
    "name": "Sevier Farmers Co-op",
    "lat": "35.870168",
    "lng": "-83.572109",
    "address": "321 West Main Street",
    "city": "Sevierville",
    "state": "TN",
    "postal": "37862",
    "phone": "865-453-7101",
    "tel": "18654537101",
    "featured": "",
    "features": ""
  },
  {
    "id": "109",
    "name": "Southeastern Farmers Co-op",
    "lat": "35.588164",
    "lng": "-85.185152",
    "address": "41448 TN-30",
    "city": "Pikeville",
    "state": "TN",
    "postal": "37367",
    "phone": "423-447-2105",
    "tel": "14234472105",
    "featured": "",
    "features": ""
  },
  {
    "id": "110",
    "name": "Southeastern Farmers Co-op",
    "lat": "35.527968",
    "lng": "-84.986347",
    "address": "9083 Rhea County Highway",
    "city": "Dayton",
    "state": "TN",
    "postal": "37321",
    "phone": "423-775-2884",
    "tel": "14237752884",
    "featured": "",
    "features": ""
  },
  {
    "id": "111",
    "name": "Southeastern Farmers Co-op",
    "lat": "34.738323",
    "lng": "-85.275602",
    "address": "105 West McCarter Road",
    "city": "LaFayette",
    "state": "GA",
    "postal": "30728",
    "phone": "706-638-3889",
    "tel": "17066383889",
    "featured": "",
    "features": ""
  },
  {
    "id": "112",
    "name": "Southern States",
    "lat": "37.785694",
    "lng": "-87.606506",
    "address": "5290 Highway 425 W",
    "city": "Henderson",
    "state": "KY",
    "postal": "42420",
    "phone": "270-826-4366",
    "tel": "12708264366",
    "featured": "",
    "features": ""
  },
  {
    "id": "113",
    "name": "Southwest Virginia Farm Supply",
    "lat": "36.840841",
    "lng": "-82.234889",
    "address": "24572 US Highway 58 A",
    "city": "Castlewood",
    "state": "VA",
    "postal": "24224",
    "phone": "276-794-9572",
    "tel": "12767949572",
    "featured": "",
    "features": ""
  },
  {
    "id": "114",
    "name": "Stockdale's",
    "lat": "35.161682",
    "lng": "-88.583329",
    "address": "581 Mulberry Avenue",
    "city": "Selmer",
    "state": "TN",
    "postal": "38375",
    "phone": "731-645-3238",
    "tel": "17316453238",
    "featured": "",
    "features": ""
  },
  {
    "id": "115",
    "name": "Tennessee Farmers Cooperative",
    "lat": "36.019438",
    "lng": "-86.581698",
    "address": "180 Old Nashville Highway",
    "city": "La Vergne",
    "state": "TN",
    "postal": "37086",
    "phone": "615-793-8400",
    "tel": "16157938400",
    "featured": "",
    "features": ""
  },
  {
    "id": "116",
    "name": "Tri-State Growers",
    "lat": "36.47321",
    "lng": "-81.802195",
    "address": "101 Depot Street",
    "city": "Mountain City",
    "state": "TN",
    "postal": "37683",
    "phone": "423-727-7881",
    "tel": "14237277881",
    "featured": "",
    "features": ""
  },
  {
    "id": "117",
    "name": "Union Farmer Co-op",
    "lat": "36.234537",
    "lng": "-83.832244",
    "address": "3035 Maynardville Highway",
    "city": "Maynardville",
    "state": "TN",
    "postal": "37807",
    "phone": "865-992-5518",
    "tel": "18659925518",
    "featured": "",
    "features": ""
  },
  {
    "id": "118",
    "name": "Warren Farmers Co-op",
    "lat": "35.658519",
    "lng": "-85.789328",
    "address": "1839 S Chancery Street",
    "city": "McMinnville",
    "state": "TN",
    "postal": "37111",
    "phone": "931-668-4151",
    "tel": "19316684151",
    "featured": "",
    "features": ""
  },
  {
    "id": "119",
    "name": "Washington Farmers Co-op",
    "lat": "36.28394",
    "lng": "-82.48161",
    "address": "1001 Depot Street",
    "city": "Jonesborough",
    "state": "TN",
    "postal": "37659",
    "phone": "423-913-1100",
    "tel": "14239131100",
    "featured": "",
    "features": ""
  },
  {
    "id": "120",
    "name": "Washington Farmers Co-op",
    "lat": "36.892221",
    "lng": "-82.3046",
    "address": "24572 US-58 ALT",
    "city": "Castlewood",
    "state": "VA",
    "postal": "24224",
    "phone": "276-794-7191",
    "tel": "12767947191",
    "featured": "",
    "features": ""
  },
  {
    "id": "121",
    "name": "Weakley Farmers Co-op",
    "lat": "36.34265",
    "lng": "-88.84039",
    "address": "330 Nash Street",
    "city": "Martin",
    "state": "TN",
    "postal": "38237",
    "phone": "731-587-9531",
    "tel": "",
    "featured": "",
    "features": ""
  },
  {
    "id": "122",
    "name": "White County Farmers Co-op",
    "lat": "35.923765",
    "lng": "-85.481967",
    "address": "271 Mayberry Street",
    "city": "Sparta",
    "state": "TN",
    "postal": "38583",
    "phone": "931-836-2278",
    "tel": "19318362278",
    "featured": "",
    "features": ""
  },
  {
    "id": "123",
    "name": "Williamson Farmers Co-op",
    "lat": "35.927517",
    "lng": "-86.857497",
    "address": "200 Eddy Lane",
    "city": "Franklin",
    "state": "TN",
    "postal": "37064",
    "phone": "615-790-6100",
    "tel": "16157906100",
    "featured": "",
    "features": ""
  },
  {
    "id": "124",
    "name": "Williamson Farmers Co-op Fairview",
    "lat": "35.991408",
    "lng": "-87.093078",
    "address": "1702 Fairview Blvd",
    "city": "Fairview",
    "state": "TN",
    "postal": "37062",
    "phone": "615-799-4100",
    "tel": "16157994100",
    "featured": "",
    "features": ""
  },
  {
    "id": "125",
    "name": "Wilson Farmers Co-op",
    "lat": "36.21617",
    "lng": "-86.325811",
    "address": "107 Babb Drive",
    "city": "Lebanon",
    "state": "TN",
    "postal": "37087",
    "phone": "615-444-5212",
    "tel": "16154445212",
    "featured": "",
    "features": ""
  },
  {
    "id": "126",
    "name": "Woodbury Farmers Co-op",
    "lat": "35.827541",
    "lng": "-86.061694",
    "address": "400 McMinnville Highway",
    "city": "Woodbury",
    "state": "TN",
    "postal": "37190",
    "phone": "",
    "tel": "",
    "featured": "",
    "features": ""
  }
]
